[
  {
    "code": "KTEB",
    "name": "Teterboro",
    "city": "New York",
    "country": "US",
    "lat": 40.8501,
    "lon": -74.0608,
    "_version": 2,
    "region": "North America",
    "type": "ga",
    "slotLevel": 1,
    "slotCoordinator": null,
    "curfew": {
      "hasCurfew": false,
      "hours": null,
      "exceptions": null
    },
    "customs": {
      "available": true,
      "hours": "24/7",
      "advanceNotice": "1 hour eAPIS"
    },
    "aoe": true,
    "immigration": {
      "available": true,
      "hours": "24/7"
    }
  },
  {
    "code": "KJFK",
    "name": "John F Kennedy Intl",
    "city": "New York",
    "country": "US",
    "lat": 40.6398,
    "lon": -73.7789,
    "_version": 2,
    "region": "North America",
    "type": "international",
    "slotLevel": 1,
    "slotCoordinator": null,
    "curfew": {
      "hasCurfew": false,
      "hours": null,
      "exceptions": null
    },
    "customs": {
      "available": true,
      "hours": "24/7",
      "advanceNotice": "1 hour eAPIS"
    },
    "aoe": true,
    "immigration": {
      "available": true,
      "hours": "24/7"
    }
  },
  {
    "code": "KLAX",
    "name": "Los Angeles Intl",
    "city": "Los Angeles",
    "country": "US",
    "lat": 33.9425,
    "lon": -118.4081,
    "_version": 2,
    "region": "North America",
    "type": "international",
    "slotLevel": 1,
    "slotCoordinator": null,
    "curfew": {
      "hasCurfew": false,
      "hours": null,
      "exceptions": null
    },
    "customs": {
      "available": true,
      "hours": "24/7",
      "advanceNotice": "1 hour eAPIS"
    },
    "aoe": true,
    "immigration": {
      "available": true,
      "hours": "24/7"
    }
  },
  {
    "code": "KLAS",
    "name": "Harry Reid Intl",
    "city": "Las Vegas",
    "country": "US",
    "lat": 36.084,
    "lon": -115.1537,
    "_version": 2,
    "region": "North America",
    "type": "regional",
    "slotLevel": 1,
    "slotCoordinator": null,
    "curfew": {
      "hasCurfew": false,
      "hours": null,
      "exceptions": null
    },
    "customs": {
      "available": true,
      "hours": "24/7",
      "advanceNotice": "1 hour eAPIS"
    },
    "aoe": false,
    "immigration": {
      "available": true,
      "hours": "24/7"
    }
  },
  {
    "code": "KMIA",
    "name": "Miami Intl",
    "city": "Miami",
    "country": "US",
    "lat": 25.7932,
    "lon": -80.2906,
    "_version": 2,
    "region": "North America",
    "type": "regional",
    "slotLevel": 1,
    "slotCoordinator": null,
    "curfew": {
      "hasCurfew": false,
      "hours": null,
      "exceptions": null
    },
    "customs": {
      "available": true,
      "hours": "24/7",
      "advanceNotice": "1 hour eAPIS"
    },
    "aoe": false,
    "immigration": {
      "available": true,
      "hours": "24/7"
    }
  },
  {
    "code": "KORD",
    "name": "O'Hare Intl",
    "city": "Chicago",
    "country": "US",
    "lat": 41.9742,
    "lon": -87.9073,
    "_version": 2,
    "region": "North America",
    "type": "regional",
    "slotLevel": 1,
    "slotCoordinator": null,
    "curfew": {
      "hasCurfew": false,
      "hours": null,
      "exceptions": null
    },
    "customs": {
      "available": false,
      "hours": "Contact FBO",
      "advanceNotice": "24 hours typical"
    },
    "aoe": false,
    "immigration": {
      "available": false,
      "hours": "Contact FBO"
    }
  },
  {
    "code": "KSFO",
    "name": "San Francisco Intl",
    "city": "San Francisco",
    "country": "US",
    "lat": 37.6213,
    "lon": -122.379,
    "_version": 2,
    "region": "North America",
    "type": "regional",
    "slotLevel": 1,
    "slotCoordinator": null,
    "curfew": {
      "hasCurfew": false,
      "hours": null,
      "exceptions": null
    },
    "customs": {
      "available": false,
      "hours": "Contact FBO",
      "advanceNotice": "24 hours typical"
    },
    "aoe": false,
    "immigration": {
      "available": false,
      "hours": "Contact FBO"
    }
  },
  {
    "code": "KDFW",
    "name": "Dallas Fort Worth Intl",
    "city": "Dallas",
    "country": "US",
    "lat": 32.8998,
    "lon": -97.0403,
    "_version": 2,
    "region": "North America",
    "type": "regional",
    "slotLevel": 1,
    "slotCoordinator": null,
    "curfew": {
      "hasCurfew": false,
      "hours": null,
      "exceptions": null
    },
    "customs": {
      "available": false,
      "hours": "Contact FBO",
      "advanceNotice": "24 hours typical"
    },
    "aoe": false,
    "immigration": {
      "available": false,
      "hours": "Contact FBO"
    }
  },
  {
    "code": "KBOS",
    "name": "Logan Intl",
    "city": "Boston",
    "country": "US",
    "lat": 42.3656,
    "lon": -71.0096,
    "_version": 2,
    "region": "North America",
    "type": "regional",
    "slotLevel": 1,
    "slotCoordinator": null,
    "curfew": {
      "hasCurfew": false,
      "hours": null,
      "exceptions": null
    },
    "customs": {
      "available": false,
      "hours": "Contact FBO",
      "advanceNotice": "24 hours typical"
    },
    "aoe": false,
    "immigration": {
      "available": false,
      "hours": "Contact FBO"
    }
  },
  {
    "code": "KPBI",
    "name": "Palm Beach Intl",
    "city": "West Palm Beach",
    "country": "US",
    "lat": 26.6832,
    "lon": -80.0956,
    "_version": 2,
    "region": "North America",
    "type": "regional",
    "slotLevel": 1,
    "slotCoordinator": null,
    "curfew": {
      "hasCurfew": false,
      "hours": null,
      "exceptions": null
    },
    "customs": {
      "available": false,
      "hours": "Contact FBO",
      "advanceNotice": "24 hours typical"
    },
    "aoe": false,
    "immigration": {
      "available": false,
      "hours": "Contact FBO"
    }
  },
  {
    "code": "KVNY",
    "name": "Van Nuys",
    "city": "Los Angeles",
    "country": "US",
    "lat": 34.2098,
    "lon": -118.49,
    "_version": 2,
    "region": "North America",
    "type": "ga",
    "slotLevel": 1,
    "slotCoordinator": null,
    "curfew": {
      "hasCurfew": true,
      "hours": "22:00-07:00",
      "exceptions": "Voluntary compliance"
    },
    "customs": {
      "available": true,
      "hours": "Contact FBO",
      "advanceNotice": "24 hours typical"
    },
    "aoe": true,
    "immigration": {
      "available": true,
      "hours": "Contact FBO"
    }
  },
  {
    "code": "KSDL",
    "name": "Scottsdale",
    "city": "Scottsdale",
    "country": "US",
    "lat": 33.6229,
    "lon": -111.9105,
    "_version": 2,
    "region": "North America",
    "type": "ga",
    "slotLevel": 1,
    "slotCoordinator": null,
    "curfew": {
      "hasCurfew": false,
      "hours": null,
      "exceptions": null
    },
    "customs": {
      "available": true,
      "hours": "Contact FBO",
      "advanceNotice": "24 hours typical"
    },
    "aoe": true,
    "immigration": {
      "available": true,
      "hours": "Contact FBO"
    }
  },
  {
    "code": "CYYZ",
    "name": "Toronto Pearson",
    "city": "Toronto",
    "country": "CA",
    "lat": 43.6777,
    "lon": -79.6248,
    "_version": 2,
    "region": "North America",
    "type": "regional",
    "slotLevel": 1,
    "slotCoordinator": null,
    "curfew": {
      "hasCurfew": false,
      "hours": null,
      "exceptions": null
    },
    "customs": {
      "available": false,
      "hours": "Contact FBO",
      "advanceNotice": "24 hours typical"
    },
    "aoe": false,
    "immigration": {
      "available": false,
      "hours": "Contact FBO"
    }
  },
  {
    "code": "CYVR",
    "name": "Vancouver Intl",
    "city": "Vancouver",
    "country": "CA",
    "lat": 49.1947,
    "lon": -123.1839,
    "_version": 2,
    "region": "North America",
    "type": "regional",
    "slotLevel": 1,
    "slotCoordinator": null,
    "curfew": {
      "hasCurfew": false,
      "hours": null,
      "exceptions": null
    },
    "customs": {
      "available": false,
      "hours": "Contact FBO",
      "advanceNotice": "24 hours typical"
    },
    "aoe": false,
    "immigration": {
      "available": false,
      "hours": "Contact FBO"
    }
  },
  {
    "code": "CYUL",
    "name": "Montreal Trudeau",
    "city": "Montreal",
    "country": "CA",
    "lat": 45.4706,
    "lon": -73.7408,
    "_version": 2,
    "region": "North America",
    "type": "regional",
    "slotLevel": 1,
    "slotCoordinator": null,
    "curfew": {
      "hasCurfew": false,
      "hours": null,
      "exceptions": null
    },
    "customs": {
      "available": false,
      "hours": "Contact FBO",
      "advanceNotice": "24 hours typical"
    },
    "aoe": false,
    "immigration": {
      "available": false,
      "hours": "Contact FBO"
    }
  },
  {
    "code": "MMMX",
    "name": "Mexico City Intl",
    "city": "Mexico City",
    "country": "MX",
    "lat": 19.4363,
    "lon": -99.0721,
    "_version": 2,
    "region": "North America",
    "type": "regional",
    "slotLevel": 1,
    "slotCoordinator": null,
    "curfew": {
      "hasCurfew": false,
      "hours": null,
      "exceptions": null
    },
    "customs": {
      "available": false,
      "hours": "Contact FBO",
      "advanceNotice": "24 hours typical"
    },
    "aoe": false,
    "immigration": {
      "available": false,
      "hours": "Contact FBO"
    }
  },
  {
    "code": "MMTJ",
    "name": "Tijuana Intl",
    "city": "Tijuana",
    "country": "MX",
    "lat": 32.5411,
    "lon": -116.97,
    "_version": 2,
    "region": "North America",
    "type": "regional",
    "slotLevel": 1,
    "slotCoordinator": null,
    "curfew": {
      "hasCurfew": false,
      "hours": null,
      "exceptions": null
    },
    "customs": {
      "available": false,
      "hours": "Contact FBO",
      "advanceNotice": "24 hours typical"
    },
    "aoe": false,
    "immigration": {
      "available": false,
      "hours": "Contact FBO"
    }
  },
  {
    "code": "EGLL",
    "name": "Heathrow",
    "city": "London",
    "country": "GB",
    "lat": 51.47,
    "lon": -0.4543,
    "_version": 2,
    "region": "Europe",
    "type": "international",
    "slotLevel": 3,
    "slotCoordinator": "ACL UK",
    "curfew": {
      "hasCurfew": true,
      "hours": "23:30-04:30",
      "exceptions": "Emergency, delayed movements"
    },
    "customs": {
      "available": true,
      "hours": "24/7",
      "advanceNotice": "GAR required"
    },
    "aoe": true,
    "immigration": {
      "available": true,
      "hours": "24/7"
    }
  },
  {
    "code": "EGLF",
    "name": "Farnborough",
    "city": "London",
    "country": "GB",
    "lat": 51.2758,
    "lon": -0.7764,
    "_version": 2,
    "region": "Europe",
    "type": "ga",
    "slotLevel": 2,
    "slotCoordinator": "ACL UK",
    "curfew": {
      "hasCurfew": false,
      "hours": null,
      "exceptions": null
    },
    "customs": {
      "available": true,
      "hours": "24/7",
      "advanceNotice": "GAR required"
    },
    "aoe": true,
    "immigration": {
      "available": true,
      "hours": "24/7"
    }
  },
  {
    "code": "EGGW",
    "name": "Luton",
    "city": "London",
    "country": "GB",
    "lat": 51.8747,
    "lon": -0.3683,
    "_version": 2,
    "region": "Europe",
    "type": "regional",
    "slotLevel": 3,
    "slotCoordinator": "ACL UK",
    "curfew": {
      "hasCurfew": false,
      "hours": null,
      "exceptions": null
    },
    "customs": {
      "available": false,
      "hours": "Contact FBO",
      "advanceNotice": "24 hours typical"
    },
    "aoe": false,
    "immigration": {
      "available": false,
      "hours": "Contact FBO"
    }
  },
  {
    "code": "EGKK",
    "name": "Gatwick",
    "city": "London",
    "country": "GB",
    "lat": 51.1481,
    "lon": -0.1903,
    "_version": 2,
    "region": "Europe",
    "type": "regional",
    "slotLevel": 3,
    "slotCoordinator": "ACL UK",
    "curfew": {
      "hasCurfew": false,
      "hours": null,
      "exceptions": null
    },
    "customs": {
      "available": false,
      "hours": "Contact FBO",
      "advanceNotice": "24 hours typical"
    },
    "aoe": false,
    "immigration": {
      "available": false,
      "hours": "Contact FBO"
    }
  },
  {
    "code": "LFPB",
    "name": "Le Bourget",
    "city": "Paris",
    "country": "FR",
    "lat": 48.9694,
    "lon": 2.4414,
    "_version": 2,
    "region": "Europe",
    "type": "ga",
    "slotLevel": 2,
    "slotCoordinator": "COHOR",
    "curfew": {
      "hasCurfew": true,
      "hours": "22:30-06:30",
      "exceptions": "PPR required"
    },
    "customs": {
      "available": true,
      "hours": "05:30-23:30",
      "advanceNotice": "2 hours"
    },
    "aoe": true,
    "immigration": {
      "available": true,
      "hours": "05:30-23:30"
    }
  },
  {
    "code": "LFPG",
    "name": "Charles de Gaulle",
    "city": "Paris",
    "country": "FR",
    "lat": 49.0097,
    "lon": 2.5478,
    "_version": 2,
    "region": "Europe",
    "type": "international",
    "slotLevel": 3,
    "slotCoordinator": "COHOR",
    "curfew": {
      "hasCurfew": true,
      "hours": "00:00-05:30",
      "exceptions": "Limited"
    },
    "customs": {
      "available": true,
      "hours": "Contact FBO",
      "advanceNotice": "24 hours typical"
    },
    "aoe": true,
    "immigration": {
      "available": true,
      "hours": "Contact FBO"
    }
  },
  {
    "code": "LFMN",
    "name": "Nice Côte d'Azur",
    "city": "Nice",
    "country": "FR",
    "lat": 43.6584,
    "lon": 7.2159,
    "_version": 2,
    "region": "Europe",
    "type": "regional",
    "slotLevel": 3,
    "slotCoordinator": "COHOR",
    "curfew": {
      "hasCurfew": false,
      "hours": null,
      "exceptions": null
    },
    "customs": {
      "available": false,
      "hours": "Contact FBO",
      "advanceNotice": "24 hours typical"
    },
    "aoe": false,
    "immigration": {
      "available": false,
      "hours": "Contact FBO"
    }
  },
  {
    "code": "EDDF",
    "name": "Frankfurt",
    "city": "Frankfurt",
    "country": "DE",
    "lat": 50.0379,
    "lon": 8.5622,
    "_version": 2,
    "region": "Europe",
    "type": "international",
    "slotLevel": 3,
    "slotCoordinator": "FHKD",
    "curfew": {
      "hasCurfew": true,
      "hours": "23:00-05:00",
      "exceptions": "Quota count system"
    },
    "customs": {
      "available": true,
      "hours": "24/7",
      "advanceNotice": "24 hours"
    },
    "aoe": true,
    "immigration": {
      "available": true,
      "hours": "24/7"
    }
  },
  {
    "code": "EDDM",
    "name": "Munich",
    "city": "Munich",
    "country": "DE",
    "lat": 48.3537,
    "lon": 11.775,
    "_version": 2,
    "region": "Europe",
    "type": "regional",
    "slotLevel": 3,
    "slotCoordinator": "FHKD",
    "curfew": {
      "hasCurfew": true,
      "hours": "22:00-06:00",
      "exceptions": "Medical, emergency"
    },
    "customs": {
      "available": false,
      "hours": "Contact FBO",
      "advanceNotice": "24 hours typical"
    },
    "aoe": false,
    "immigration": {
      "available": false,
      "hours": "Contact FBO"
    }
  },
  {
    "code": "LIRF",
    "name": "Fiumicino",
    "city": "Rome",
    "country": "IT",
    "lat": 41.8003,
    "lon": 12.2389,
    "_version": 2,
    "region": "Europe",
    "type": "regional",
    "slotLevel": 3,
    "slotCoordinator": "ASSOCLEARANCE",
    "curfew": {
      "hasCurfew": false,
      "hours": null,
      "exceptions": null
    },
    "customs": {
      "available": false,
      "hours": "Contact FBO",
      "advanceNotice": "24 hours typical"
    },
    "aoe": false,
    "immigration": {
      "available": false,
      "hours": "Contact FBO"
    }
  },
  {
    "code": "LIMC",
    "name": "Malpensa",
    "city": "Milan",
    "country": "IT",
    "lat": 45.6306,
    "lon": 8.7231,
    "_version": 2,
    "region": "Europe",
    "type": "regional",
    "slotLevel": 3,
    "slotCoordinator": "ASSOCLEARANCE",
    "curfew": {
      "hasCurfew": false,
      "hours": null,
      "exceptions": null
    },
    "customs": {
      "available": false,
      "hours": "Contact FBO",
      "advanceNotice": "24 hours typical"
    },
    "aoe": false,
    "immigration": {
      "available": false,
      "hours": "Contact FBO"
    }
  },
  {
    "code": "LEMD",
    "name": "Madrid Barajas",
    "city": "Madrid",
    "country": "ES",
    "lat": 40.4983,
    "lon": -3.5676,
    "_version": 2,
    "region": "Europe",
    "type": "regional",
    "slotLevel": 3,
    "slotCoordinator": "SACTA",
    "curfew": {
      "hasCurfew": true,
      "hours": "00:00-06:00",
      "exceptions": "Limited movements allowed"
    },
    "customs": {
      "available": false,
      "hours": "Contact FBO",
      "advanceNotice": "24 hours typical"
    },
    "aoe": false,
    "immigration": {
      "available": false,
      "hours": "Contact FBO"
    }
  },
  {
    "code": "LEBL",
    "name": "Barcelona El Prat",
    "city": "Barcelona",
    "country": "ES",
    "lat": 41.2971,
    "lon": 2.0785,
    "_version": 2,
    "region": "Europe",
    "type": "regional",
    "slotLevel": 3,
    "slotCoordinator": "SACTA",
    "curfew": {
      "hasCurfew": false,
      "hours": null,
      "exceptions": null
    },
    "customs": {
      "available": false,
      "hours": "Contact FBO",
      "advanceNotice": "24 hours typical"
    },
    "aoe": false,
    "immigration": {
      "available": false,
      "hours": "Contact FBO"
    }
  },
  {
    "code": "LSGG",
    "name": "Geneva",
    "city": "Geneva",
    "country": "CH",
    "lat": 46.237,
    "lon": 6.1089,
    "_version": 2,
    "region": "Europe",
    "type": "ga",
    "slotLevel": 2,
    "slotCoordinator": "SLOT CH",
    "curfew": {
      "hasCurfew": false,
      "hours": null,
      "exceptions": null
    },
    "customs": {
      "available": true,
      "hours": "06:00-22:00",
      "advanceNotice": "24 hours"
    },
    "aoe": true,
    "immigration": {
      "available": true,
      "hours": "06:00-22:00"
    }
  },
  {
    "code": "LSZH",
    "name": "Zurich",
    "city": "Zurich",
    "country": "CH",
    "lat": 47.4647,
    "lon": 8.5492,
    "_version": 2,
    "region": "Europe",
    "type": "international",
    "slotLevel": 3,
    "slotCoordinator": "SLOT CH",
    "curfew": {
      "hasCurfew": true,
      "hours": "23:00-06:00",
      "exceptions": "Emergency only"
    },
    "customs": {
      "available": true,
      "hours": "06:00-22:00",
      "advanceNotice": "24 hours"
    },
    "aoe": true,
    "immigration": {
      "available": true,
      "hours": "06:00-22:00"
    }
  },
  {
    "code": "EHAM",
    "name": "Schiphol",
    "city": "Amsterdam",
    "country": "NL",
    "lat": 52.3086,
    "lon": 4.7639,
    "_version": 2,
    "region": "Europe",
    "type": "international",
    "slotLevel": 3,
    "slotCoordinator": "ACNL",
    "curfew": {
      "hasCurfew": true,
      "hours": "23:00-06:00",
      "exceptions": "Schiphol night regime"
    },
    "customs": {
      "available": true,
      "hours": "Contact FBO",
      "advanceNotice": "24 hours typical"
    },
    "aoe": true,
    "immigration": {
      "available": true,
      "hours": "Contact FBO"
    }
  },
  {
    "code": "EBBR",
    "name": "Brussels",
    "city": "Brussels",
    "country": "BE",
    "lat": 50.9014,
    "lon": 4.4844,
    "_version": 2,
    "region": "Europe",
    "type": "regional",
    "slotLevel": 1,
    "slotCoordinator": null,
    "curfew": {
      "hasCurfew": false,
      "hours": null,
      "exceptions": null
    },
    "customs": {
      "available": false,
      "hours": "Contact FBO",
      "advanceNotice": "24 hours typical"
    },
    "aoe": false,
    "immigration": {
      "available": false,
      "hours": "Contact FBO"
    }
  },
  {
    "code": "LOWW",
    "name": "Vienna",
    "city": "Vienna",
    "country": "AT",
    "lat": 48.1103,
    "lon": 16.5697,
    "_version": 2,
    "region": "Europe",
    "type": "regional",
    "slotLevel": 2,
    "slotCoordinator": "Schedule Coordination Austria",
    "curfew": {
      "hasCurfew": false,
      "hours": null,
      "exceptions": null
    },
    "customs": {
      "available": false,
      "hours": "Contact FBO",
      "advanceNotice": "24 hours typical"
    },
    "aoe": false,
    "immigration": {
      "available": false,
      "hours": "Contact FBO"
    }
  },
  {
    "code": "LPPT",
    "name": "Lisbon",
    "city": "Lisbon",
    "country": "PT",
    "lat": 38.7813,
    "lon": -9.1359,
    "_version": 2,
    "region": "Europe",
    "type": "regional",
    "slotLevel": 1,
    "slotCoordinator": null,
    "curfew": {
      "hasCurfew": false,
      "hours": null,
      "exceptions": null
    },
    "customs": {
      "available": false,
      "hours": "Contact FBO",
      "advanceNotice": "24 hours typical"
    },
    "aoe": false,
    "immigration": {
      "available": false,
      "hours": "Contact FBO"
    }
  },
  {
    "code": "EIDW",
    "name": "Dublin",
    "city": "Dublin",
    "country": "IE",
    "lat": 53.4213,
    "lon": -6.2701,
    "_version": 2,
    "region": "Europe",
    "type": "regional",
    "slotLevel": 1,
    "slotCoordinator": null,
    "curfew": {
      "hasCurfew": false,
      "hours": null,
      "exceptions": null
    },
    "customs": {
      "available": false,
      "hours": "Contact FBO",
      "advanceNotice": "24 hours typical"
    },
    "aoe": false,
    "immigration": {
      "available": false,
      "hours": "Contact FBO"
    }
  },
  {
    "code": "ENGM",
    "name": "Oslo Gardermoen",
    "city": "Oslo",
    "country": "NO",
    "lat": 60.1939,
    "lon": 11.1004,
    "_version": 2,
    "region": "Europe",
    "type": "regional",
    "slotLevel": 1,
    "slotCoordinator": null,
    "curfew": {
      "hasCurfew": false,
      "hours": null,
      "exceptions": null
    },
    "customs": {
      "available": false,
      "hours": "Contact FBO",
      "advanceNotice": "24 hours typical"
    },
    "aoe": false,
    "immigration": {
      "available": false,
      "hours": "Contact FBO"
    }
  },
  {
    "code": "ESSA",
    "name": "Stockholm Arlanda",
    "city": "Stockholm",
    "country": "SE",
    "lat": 59.6519,
    "lon": 17.9186,
    "_version": 2,
    "region": "Europe",
    "type": "regional",
    "slotLevel": 1,
    "slotCoordinator": null,
    "curfew": {
      "hasCurfew": false,
      "hours": null,
      "exceptions": null
    },
    "customs": {
      "available": false,
      "hours": "Contact FBO",
      "advanceNotice": "24 hours typical"
    },
    "aoe": false,
    "immigration": {
      "available": false,
      "hours": "Contact FBO"
    }
  },
  {
    "code": "EKCH",
    "name": "Copenhagen",
    "city": "Copenhagen",
    "country": "DK",
    "lat": 55.618,
    "lon": 12.6561,
    "_version": 2,
    "region": "Europe",
    "type": "regional",
    "slotLevel": 1,
    "slotCoordinator": null,
    "curfew": {
      "hasCurfew": false,
      "hours": null,
      "exceptions": null
    },
    "customs": {
      "available": false,
      "hours": "Contact FBO",
      "advanceNotice": "24 hours typical"
    },
    "aoe": false,
    "immigration": {
      "available": false,
      "hours": "Contact FBO"
    }
  },
  {
    "code": "EFHK",
    "name": "Helsinki Vantaa",
    "city": "Helsinki",
    "country": "FI",
    "lat": 60.3172,
    "lon": 24.9633,
    "_version": 2,
    "region": "Europe",
    "type": "regional",
    "slotLevel": 1,
    "slotCoordinator": null,
    "curfew": {
      "hasCurfew": false,
      "hours": null,
      "exceptions": null
    },
    "customs": {
      "available": false,
      "hours": "Contact FBO",
      "advanceNotice": "24 hours typical"
    },
    "aoe": false,
    "immigration": {
      "available": false,
      "hours": "Contact FBO"
    }
  },
  {
    "code": "LGAV",
    "name": "Athens Intl",
    "city": "Athens",
    "country": "GR",
    "lat": 37.9364,
    "lon": 23.9445,
    "_version": 2,
    "region": "Europe",
    "type": "regional",
    "slotLevel": 1,
    "slotCoordinator": null,
    "curfew": {
      "hasCurfew": false,
      "hours": null,
      "exceptions": null
    },
    "customs": {
      "available": false,
      "hours": "Contact FBO",
      "advanceNotice": "24 hours typical"
    },
    "aoe": false,
    "immigration": {
      "available": false,
      "hours": "Contact FBO"
    }
  },
  {
    "code": "LTFM",
    "name": "Istanbul",
    "city": "Istanbul",
    "country": "TR",
    "lat": 41.2753,
    "lon": 28.7519,
    "_version": 2,
    "region": "Europe",
    "type": "regional",
    "slotLevel": 1,
    "slotCoordinator": null,
    "curfew": {
      "hasCurfew": false,
      "hours": null,
      "exceptions": null
    },
    "customs": {
      "available": false,
      "hours": "Contact FBO",
      "advanceNotice": "24 hours typical"
    },
    "aoe": false,
    "immigration": {
      "available": false,
      "hours": "Contact FBO"
    }
  },
  {
    "code": "UUEE",
    "name": "Sheremetyevo",
    "city": "Moscow",
    "country": "RU",
    "lat": 55.9726,
    "lon": 37.4146,
    "_version": 2,
    "region": "Europe",
    "type": "regional",
    "slotLevel": 1,
    "slotCoordinator": null,
    "curfew": {
      "hasCurfew": false,
      "hours": null,
      "exceptions": null
    },
    "customs": {
      "available": false,
      "hours": "Contact FBO",
      "advanceNotice": "24 hours typical"
    },
    "aoe": false,
    "immigration": {
      "available": false,
      "hours": "Contact FBO"
    }
  },
  {
    "code": "EPWA",
    "name": "Warsaw Chopin",
    "city": "Warsaw",
    "country": "PL",
    "lat": 52.1657,
    "lon": 20.9671,
    "_version": 2,
    "region": "Europe",
    "type": "regional",
    "slotLevel": 1,
    "slotCoordinator": null,
    "curfew": {
      "hasCurfew": false,
      "hours": null,
      "exceptions": null
    },
    "customs": {
      "available": false,
      "hours": "Contact FBO",
      "advanceNotice": "24 hours typical"
    },
    "aoe": false,
    "immigration": {
      "available": false,
      "hours": "Contact FBO"
    }
  },
  {
    "code": "LKPR",
    "name": "Prague",
    "city": "Prague",
    "country": "CZ",
    "lat": 50.1008,
    "lon": 14.26,
    "_version": 2,
    "region": "Europe",
    "type": "regional",
    "slotLevel": 1,
    "slotCoordinator": null,
    "curfew": {
      "hasCurfew": false,
      "hours": null,
      "exceptions": null
    },
    "customs": {
      "available": false,
      "hours": "Contact FBO",
      "advanceNotice": "24 hours typical"
    },
    "aoe": false,
    "immigration": {
      "available": false,
      "hours": "Contact FBO"
    }
  },
  {
    "code": "LHBP",
    "name": "Budapest",
    "city": "Budapest",
    "country": "HU",
    "lat": 47.4369,
    "lon": 19.2556,
    "_version": 2,
    "region": "Europe",
    "type": "regional",
    "slotLevel": 1,
    "slotCoordinator": null,
    "curfew": {
      "hasCurfew": false,
      "hours": null,
      "exceptions": null
    },
    "customs": {
      "available": false,
      "hours": "Contact FBO",
      "advanceNotice": "24 hours typical"
    },
    "aoe": false,
    "immigration": {
      "available": false,
      "hours": "Contact FBO"
    }
  },
  {
    "code": "OMDB",
    "name": "Dubai Intl",
    "city": "Dubai",
    "country": "AE",
    "lat": 25.2528,
    "lon": 55.3644,
    "_version": 2,
    "region": "Middle East",
    "type": "international",
    "slotLevel": 1,
    "slotCoordinator": null,
    "curfew": {
      "hasCurfew": false,
      "hours": null,
      "exceptions": null
    },
    "customs": {
      "available": true,
      "hours": "24/7",
      "advanceNotice": "Pre-arrival manifest"
    },
    "aoe": true,
    "immigration": {
      "available": true,
      "hours": "24/7"
    }
  },
  {
    "code": "OMDW",
    "name": "Al Maktoum (DWC)",
    "city": "Dubai",
    "country": "AE",
    "lat": 24.8967,
    "lon": 55.1614,
    "_version": 2,
    "region": "Middle East",
    "type": "ga",
    "slotLevel": 1,
    "slotCoordinator": null,
    "curfew": {
      "hasCurfew": false,
      "hours": null,
      "exceptions": null
    },
    "customs": {
      "available": true,
      "hours": "24/7",
      "advanceNotice": "Pre-arrival manifest"
    },
    "aoe": true,
    "immigration": {
      "available": true,
      "hours": "24/7"
    }
  },
  {
    "code": "OMAA",
    "name": "Abu Dhabi Intl",
    "city": "Abu Dhabi",
    "country": "AE",
    "lat": 24.433,
    "lon": 54.6511,
    "_version": 2,
    "region": "Middle East",
    "type": "regional",
    "slotLevel": 1,
    "slotCoordinator": null,
    "curfew": {
      "hasCurfew": false,
      "hours": null,
      "exceptions": null
    },
    "customs": {
      "available": false,
      "hours": "Contact FBO",
      "advanceNotice": "24 hours typical"
    },
    "aoe": false,
    "immigration": {
      "available": false,
      "hours": "Contact FBO"
    }
  },
  {
    "code": "OTHH",
    "name": "Hamad Intl",
    "city": "Doha",
    "country": "QA",
    "lat": 25.2731,
    "lon": 51.6081,
    "_version": 2,
    "region": "Middle East",
    "type": "regional",
    "slotLevel": 1,
    "slotCoordinator": null,
    "curfew": {
      "hasCurfew": false,
      "hours": null,
      "exceptions": null
    },
    "customs": {
      "available": true,
      "hours": "24/7",
      "advanceNotice": "Pre-arrival manifest"
    },
    "aoe": false,
    "immigration": {
      "available": true,
      "hours": "24/7"
    }
  },
  {
    "code": "OEJN",
    "name": "King Abdulaziz",
    "city": "Jeddah",
    "country": "SA",
    "lat": 21.6796,
    "lon": 39.1565,
    "_version": 2,
    "region": "Middle East",
    "type": "regional",
    "slotLevel": 1,
    "slotCoordinator": null,
    "curfew": {
      "hasCurfew": false,
      "hours": null,
      "exceptions": null
    },
    "customs": {
      "available": false,
      "hours": "Contact FBO",
      "advanceNotice": "24 hours typical"
    },
    "aoe": false,
    "immigration": {
      "available": false,
      "hours": "Contact FBO"
    }
  },
  {
    "code": "OERK",
    "name": "King Khalid",
    "city": "Riyadh",
    "country": "SA",
    "lat": 24.9576,
    "lon": 46.6988,
    "_version": 2,
    "region": "Middle East",
    "type": "regional",
    "slotLevel": 1,
    "slotCoordinator": null,
    "curfew": {
      "hasCurfew": false,
      "hours": null,
      "exceptions": null
    },
    "customs": {
      "available": false,
      "hours": "Contact FBO",
      "advanceNotice": "24 hours typical"
    },
    "aoe": false,
    "immigration": {
      "available": false,
      "hours": "Contact FBO"
    }
  },
  {
    "code": "OBBI",
    "name": "Bahrain Intl",
    "city": "Manama",
    "country": "BH",
    "lat": 26.2708,
    "lon": 50.6336,
    "_version": 2,
    "region": "Middle East",
    "type": "regional",
    "slotLevel": 1,
    "slotCoordinator": null,
    "curfew": {
      "hasCurfew": false,
      "hours": null,
      "exceptions": null
    },
    "customs": {
      "available": false,
      "hours": "Contact FBO",
      "advanceNotice": "24 hours typical"
    },
    "aoe": false,
    "immigration": {
      "available": false,
      "hours": "Contact FBO"
    }
  },
  {
    "code": "OKBK",
    "name": "Kuwait Intl",
    "city": "Kuwait City",
    "country": "KW",
    "lat": 29.2266,
    "lon": 47.9689,
    "_version": 2,
    "region": "Middle East",
    "type": "regional",
    "slotLevel": 1,
    "slotCoordinator": null,
    "curfew": {
      "hasCurfew": false,
      "hours": null,
      "exceptions": null
    },
    "customs": {
      "available": false,
      "hours": "Contact FBO",
      "advanceNotice": "24 hours typical"
    },
    "aoe": false,
    "immigration": {
      "available": false,
      "hours": "Contact FBO"
    }
  },
  {
    "code": "OOMS",
    "name": "Muscat Intl",
    "city": "Muscat",
    "country": "OM",
    "lat": 23.5933,
    "lon": 58.2844,
    "_version": 2,
    "region": "Middle East",
    "type": "regional",
    "slotLevel": 1,
    "slotCoordinator": null,
    "curfew": {
      "hasCurfew": false,
      "hours": null,
      "exceptions": null
    },
    "customs": {
      "available": false,
      "hours": "Contact FBO",
      "advanceNotice": "24 hours typical"
    },
    "aoe": false,
    "immigration": {
      "available": false,
      "hours": "Contact FBO"
    }
  },
  {
    "code": "LLBG",
    "name": "Ben Gurion",
    "city": "Tel Aviv",
    "country": "IL",
    "lat": 32.0094,
    "lon": 34.8817,
    "_version": 2,
    "region": "Middle East",
    "type": "regional",
    "slotLevel": 1,
    "slotCoordinator": null,
    "curfew": {
      "hasCurfew": false,
      "hours": null,
      "exceptions": null
    },
    "customs": {
      "available": false,
      "hours": "Contact FBO",
      "advanceNotice": "24 hours typical"
    },
    "aoe": false,
    "immigration": {
      "available": false,
      "hours": "Contact FBO"
    }
  },
  {
    "code": "OJAI",
    "name": "Queen Alia",
    "city": "Amman",
    "country": "JO",
    "lat": 31.7226,
    "lon": 35.9932,
    "_version": 2,
    "region": "Middle East",
    "type": "regional",
    "slotLevel": 1,
    "slotCoordinator": null,
    "curfew": {
      "hasCurfew": false,
      "hours": null,
      "exceptions": null
    },
    "customs": {
      "available": false,
      "hours": "Contact FBO",
      "advanceNotice": "24 hours typical"
    },
    "aoe": false,
    "immigration": {
      "available": false,
      "hours": "Contact FBO"
    }
  },
  {
    "code": "VHHH",
    "name": "Hong Kong Intl",
    "city": "Hong Kong",
    "country": "HK",
    "lat": 22.308,
    "lon": 113.9185,
    "_version": 2,
    "region": "Asia Pacific",
    "type": "international",
    "slotLevel": 1,
    "slotCoordinator": null,
    "curfew": {
      "hasCurfew": false,
      "hours": null,
      "exceptions": null
    },
    "customs": {
      "available": true,
      "hours": "Contact FBO",
      "advanceNotice": "24 hours typical"
    },
    "aoe": true,
    "immigration": {
      "available": true,
      "hours": "Contact FBO"
    }
  },
  {
    "code": "WSSS",
    "name": "Changi",
    "city": "Singapore",
    "country": "SG",
    "lat": 1.3644,
    "lon": 103.9915,
    "_version": 2,
    "region": "Asia Pacific",
    "type": "international",
    "slotLevel": 1,
    "slotCoordinator": null,
    "curfew": {
      "hasCurfew": false,
      "hours": null,
      "exceptions": null
    },
    "customs": {
      "available": true,
      "hours": "Contact FBO",
      "advanceNotice": "24 hours typical"
    },
    "aoe": true,
    "immigration": {
      "available": true,
      "hours": "Contact FBO"
    }
  },
  {
    "code": "RJTT",
    "name": "Haneda",
    "city": "Tokyo",
    "country": "JP",
    "lat": 35.5494,
    "lon": 139.7798,
    "_version": 2,
    "region": "Asia Pacific",
    "type": "international",
    "slotLevel": 1,
    "slotCoordinator": null,
    "curfew": {
      "hasCurfew": false,
      "hours": null,
      "exceptions": null
    },
    "customs": {
      "available": true,
      "hours": "Contact FBO",
      "advanceNotice": "24 hours typical"
    },
    "aoe": true,
    "immigration": {
      "available": true,
      "hours": "Contact FBO"
    }
  },
  {
    "code": "RJAA",
    "name": "Narita",
    "city": "Tokyo",
    "country": "JP",
    "lat": 35.7647,
    "lon": 140.3864,
    "_version": 2,
    "region": "Asia Pacific",
    "type": "regional",
    "slotLevel": 1,
    "slotCoordinator": null,
    "curfew": {
      "hasCurfew": false,
      "hours": null,
      "exceptions": null
    },
    "customs": {
      "available": false,
      "hours": "Contact FBO",
      "advanceNotice": "24 hours typical"
    },
    "aoe": false,
    "immigration": {
      "available": false,
      "hours": "Contact FBO"
    }
  },
  {
    "code": "RKSI",
    "name": "Incheon",
    "city": "Seoul",
    "country": "KR",
    "lat": 37.4691,
    "lon": 126.4505,
    "_version": 2,
    "region": "Asia Pacific",
    "type": "regional",
    "slotLevel": 1,
    "slotCoordinator": null,
    "curfew": {
      "hasCurfew": false,
      "hours": null,
      "exceptions": null
    },
    "customs": {
      "available": false,
      "hours": "Contact FBO",
      "advanceNotice": "24 hours typical"
    },
    "aoe": false,
    "immigration": {
      "available": false,
      "hours": "Contact FBO"
    }
  },
  {
    "code": "RCTP",
    "name": "Taoyuan",
    "city": "Taipei",
    "country": "TW",
    "lat": 25.0777,
    "lon": 121.2325,
    "_version": 2,
    "region": "Asia Pacific",
    "type": "regional",
    "slotLevel": 1,
    "slotCoordinator": null,
    "curfew": {
      "hasCurfew": false,
      "hours": null,
      "exceptions": null
    },
    "customs": {
      "available": false,
      "hours": "Contact FBO",
      "advanceNotice": "24 hours typical"
    },
    "aoe": false,
    "immigration": {
      "available": false,
      "hours": "Contact FBO"
    }
  },
  {
    "code": "ZBAA",
    "name": "Beijing Capital",
    "city": "Beijing",
    "country": "CN",
    "lat": 40.0799,
    "lon": 116.6031,
    "_version": 2,
    "region": "Asia Pacific",
    "type": "regional",
    "slotLevel": 1,
    "slotCoordinator": null,
    "curfew": {
      "hasCurfew": false,
      "hours": null,
      "exceptions": null
    },
    "customs": {
      "available": false,
      "hours": "Contact FBO",
      "advanceNotice": "24 hours typical"
    },
    "aoe": false,
    "immigration": {
      "available": false,
      "hours": "Contact FBO"
    }
  },
  {
    "code": "ZSPD",
    "name": "Shanghai Pudong",
    "city": "Shanghai",
    "country": "CN",
    "lat": 31.1434,
    "lon": 121.8052,
    "_version": 2,
    "region": "Asia Pacific",
    "type": "regional",
    "slotLevel": 1,
    "slotCoordinator": null,
    "curfew": {
      "hasCurfew": false,
      "hours": null,
      "exceptions": null
    },
    "customs": {
      "available": false,
      "hours": "Contact FBO",
      "advanceNotice": "24 hours typical"
    },
    "aoe": false,
    "immigration": {
      "available": false,
      "hours": "Contact FBO"
    }
  },
  {
    "code": "VABB",
    "name": "Chhatrapati Shivaji",
    "city": "Mumbai",
    "country": "IN",
    "lat": 19.0896,
    "lon": 72.8656,
    "_version": 2,
    "region": "Asia Pacific",
    "type": "regional",
    "slotLevel": 1,
    "slotCoordinator": null,
    "curfew": {
      "hasCurfew": false,
      "hours": null,
      "exceptions": null
    },
    "customs": {
      "available": false,
      "hours": "Contact FBO",
      "advanceNotice": "24 hours typical"
    },
    "aoe": false,
    "immigration": {
      "available": false,
      "hours": "Contact FBO"
    }
  },
  {
    "code": "VIDP",
    "name": "Indira Gandhi",
    "city": "Delhi",
    "country": "IN",
    "lat": 28.5562,
    "lon": 77.1,
    "_version": 2,
    "region": "Asia Pacific",
    "type": "regional",
    "slotLevel": 1,
    "slotCoordinator": null,
    "curfew": {
      "hasCurfew": false,
      "hours": null,
      "exceptions": null
    },
    "customs": {
      "available": false,
      "hours": "Contact FBO",
      "advanceNotice": "24 hours typical"
    },
    "aoe": false,
    "immigration": {
      "available": false,
      "hours": "Contact FBO"
    }
  },
  {
    "code": "VTBS",
    "name": "Suvarnabhumi",
    "city": "Bangkok",
    "country": "TH",
    "lat": 13.69,
    "lon": 100.7501,
    "_version": 2,
    "region": "Asia Pacific",
    "type": "regional",
    "slotLevel": 1,
    "slotCoordinator": null,
    "curfew": {
      "hasCurfew": false,
      "hours": null,
      "exceptions": null
    },
    "customs": {
      "available": false,
      "hours": "Contact FBO",
      "advanceNotice": "24 hours typical"
    },
    "aoe": false,
    "immigration": {
      "available": false,
      "hours": "Contact FBO"
    }
  },
  {
    "code": "WMKK",
    "name": "Kuala Lumpur Intl",
    "city": "Kuala Lumpur",
    "country": "MY",
    "lat": 2.7456,
    "lon": 101.7072,
    "_version": 2,
    "region": "Asia Pacific",
    "type": "regional",
    "slotLevel": 1,
    "slotCoordinator": null,
    "curfew": {
      "hasCurfew": false,
      "hours": null,
      "exceptions": null
    },
    "customs": {
      "available": false,
      "hours": "Contact FBO",
      "advanceNotice": "24 hours typical"
    },
    "aoe": false,
    "immigration": {
      "available": false,
      "hours": "Contact FBO"
    }
  },
  {
    "code": "WIII",
    "name": "Soekarno-Hatta",
    "city": "Jakarta",
    "country": "ID",
    "lat": -6.1256,
    "lon": 106.6559,
    "_version": 2,
    "region": "Asia Pacific",
    "type": "regional",
    "slotLevel": 1,
    "slotCoordinator": null,
    "curfew": {
      "hasCurfew": false,
      "hours": null,
      "exceptions": null
    },
    "customs": {
      "available": false,
      "hours": "Contact FBO",
      "advanceNotice": "24 hours typical"
    },
    "aoe": false,
    "immigration": {
      "available": false,
      "hours": "Contact FBO"
    }
  },
  {
    "code": "RPLL",
    "name": "Ninoy Aquino",
    "city": "Manila",
    "country": "PH",
    "lat": 14.5086,
    "lon": 121.0198,
    "_version": 2,
    "region": "Asia Pacific",
    "type": "regional",
    "slotLevel": 1,
    "slotCoordinator": null,
    "curfew": {
      "hasCurfew": false,
      "hours": null,
      "exceptions": null
    },
    "customs": {
      "available": false,
      "hours": "Contact FBO",
      "advanceNotice": "24 hours typical"
    },
    "aoe": false,
    "immigration": {
      "available": false,
      "hours": "Contact FBO"
    }
  },
  {
    "code": "VVNB",
    "name": "Noi Bai",
    "city": "Hanoi",
    "country": "VN",
    "lat": 21.2212,
    "lon": 105.8072,
    "_version": 2,
    "region": "Asia Pacific",
    "type": "regional",
    "slotLevel": 1,
    "slotCoordinator": null,
    "curfew": {
      "hasCurfew": false,
      "hours": null,
      "exceptions": null
    },
    "customs": {
      "available": false,
      "hours": "Contact FBO",
      "advanceNotice": "24 hours typical"
    },
    "aoe": false,
    "immigration": {
      "available": false,
      "hours": "Contact FBO"
    }
  },
  {
    "code": "ZMUB",
    "name": "Chinggis Khaan",
    "city": "Ulaanbaatar",
    "country": "MN",
    "lat": 47.8431,
    "lon": 106.7667,
    "_version": 2,
    "region": "Asia Pacific",
    "type": "regional",
    "slotLevel": 1,
    "slotCoordinator": null,
    "curfew": {
      "hasCurfew": false,
      "hours": null,
      "exceptions": null
    },
    "customs": {
      "available": false,
      "hours": "Contact FBO",
      "advanceNotice": "24 hours typical"
    },
    "aoe": false,
    "immigration": {
      "available": false,
      "hours": "Contact FBO"
    }
  },
  {
    "code": "FAOR",
    "name": "OR Tambo",
    "city": "Johannesburg",
    "country": "ZA",
    "lat": -26.1392,
    "lon": 28.246,
    "_version": 2,
    "region": "Africa",
    "type": "regional",
    "slotLevel": 1,
    "slotCoordinator": null,
    "curfew": {
      "hasCurfew": false,
      "hours": null,
      "exceptions": null
    },
    "customs": {
      "available": false,
      "hours": "Contact FBO",
      "advanceNotice": "24 hours typical"
    },
    "aoe": false,
    "immigration": {
      "available": false,
      "hours": "Contact FBO"
    }
  },
  {
    "code": "FACT",
    "name": "Cape Town Intl",
    "city": "Cape Town",
    "country": "ZA",
    "lat": -33.9648,
    "lon": 18.6017,
    "_version": 2,
    "region": "Africa",
    "type": "regional",
    "slotLevel": 1,
    "slotCoordinator": null,
    "curfew": {
      "hasCurfew": false,
      "hours": null,
      "exceptions": null
    },
    "customs": {
      "available": false,
      "hours": "Contact FBO",
      "advanceNotice": "24 hours typical"
    },
    "aoe": false,
    "immigration": {
      "available": false,
      "hours": "Contact FBO"
    }
  },
  {
    "code": "HKJK",
    "name": "Jomo Kenyatta",
    "city": "Nairobi",
    "country": "KE",
    "lat": -1.3192,
    "lon": 36.9278,
    "_version": 2,
    "region": "Africa",
    "type": "regional",
    "slotLevel": 1,
    "slotCoordinator": null,
    "curfew": {
      "hasCurfew": false,
      "hours": null,
      "exceptions": null
    },
    "customs": {
      "available": false,
      "hours": "Contact FBO",
      "advanceNotice": "24 hours typical"
    },
    "aoe": false,
    "immigration": {
      "available": false,
      "hours": "Contact FBO"
    }
  },
  {
    "code": "DNMM",
    "name": "Murtala Muhammed",
    "city": "Lagos",
    "country": "NG",
    "lat": 6.5774,
    "lon": 3.3212,
    "_version": 2,
    "region": "Africa",
    "type": "regional",
    "slotLevel": 1,
    "slotCoordinator": null,
    "curfew": {
      "hasCurfew": false,
      "hours": null,
      "exceptions": null
    },
    "customs": {
      "available": false,
      "hours": "Contact FBO",
      "advanceNotice": "24 hours typical"
    },
    "aoe": false,
    "immigration": {
      "available": false,
      "hours": "Contact FBO"
    }
  },
  {
    "code": "HECA",
    "name": "Cairo Intl",
    "city": "Cairo",
    "country": "EG",
    "lat": 30.1219,
    "lon": 31.4056,
    "_version": 2,
    "region": "Africa",
    "type": "regional",
    "slotLevel": 1,
    "slotCoordinator": null,
    "curfew": {
      "hasCurfew": false,
      "hours": null,
      "exceptions": null
    },
    "customs": {
      "available": false,
      "hours": "Contact FBO",
      "advanceNotice": "24 hours typical"
    },
    "aoe": false,
    "immigration": {
      "available": false,
      "hours": "Contact FBO"
    }
  },
  {
    "code": "GMMN",
    "name": "Mohammed V",
    "city": "Casablanca",
    "country": "MA",
    "lat": 33.3675,
    "lon": -7.59,
    "_version": 2,
    "region": "Africa",
    "type": "regional",
    "slotLevel": 1,
    "slotCoordinator": null,
    "curfew": {
      "hasCurfew": false,
      "hours": null,
      "exceptions": null
    },
    "customs": {
      "available": false,
      "hours": "Contact FBO",
      "advanceNotice": "24 hours typical"
    },
    "aoe": false,
    "immigration": {
      "available": false,
      "hours": "Contact FBO"
    }
  },
  {
    "code": "GMMX",
    "name": "Marrakech Menara",
    "city": "Marrakech",
    "country": "MA",
    "lat": 31.6069,
    "lon": -8.0363,
    "_version": 2,
    "region": "Africa",
    "type": "regional",
    "slotLevel": 1,
    "slotCoordinator": null,
    "curfew": {
      "hasCurfew": false,
      "hours": null,
      "exceptions": null
    },
    "customs": {
      "available": false,
      "hours": "Contact FBO",
      "advanceNotice": "24 hours typical"
    },
    "aoe": false,
    "immigration": {
      "available": false,
      "hours": "Contact FBO"
    }
  },
  {
    "code": "DTTA",
    "name": "Tunis Carthage",
    "city": "Tunis",
    "country": "TN",
    "lat": 36.851,
    "lon": 10.2272,
    "_version": 2,
    "region": "Africa",
    "type": "regional",
    "slotLevel": 1,
    "slotCoordinator": null,
    "curfew": {
      "hasCurfew": false,
      "hours": null,
      "exceptions": null
    },
    "customs": {
      "available": false,
      "hours": "Contact FBO",
      "advanceNotice": "24 hours typical"
    },
    "aoe": false,
    "immigration": {
      "available": false,
      "hours": "Contact FBO"
    }
  },
  {
    "code": "DAAG",
    "name": "Houari Boumediene",
    "city": "Algiers",
    "country": "DZ",
    "lat": 36.691,
    "lon": 3.2154,
    "_version": 2,
    "region": "Africa",
    "type": "regional",
    "slotLevel": 1,
    "slotCoordinator": null,
    "curfew": {
      "hasCurfew": false,
      "hours": null,
      "exceptions": null
    },
    "customs": {
      "available": false,
      "hours": "Contact FBO",
      "advanceNotice": "24 hours typical"
    },
    "aoe": false,
    "immigration": {
      "available": false,
      "hours": "Contact FBO"
    }
  },
  {
    "code": "FMEE",
    "name": "Sir Seewoosagur Ramgoolam",
    "city": "Mauritius",
    "country": "MU",
    "lat": -20.4302,
    "lon": 57.6836,
    "_version": 2,
    "region": "Africa",
    "type": "regional",
    "slotLevel": 1,
    "slotCoordinator": null,
    "curfew": {
      "hasCurfew": false,
      "hours": null,
      "exceptions": null
    },
    "customs": {
      "available": false,
      "hours": "Contact FBO",
      "advanceNotice": "24 hours typical"
    },
    "aoe": false,
    "immigration": {
      "available": false,
      "hours": "Contact FBO"
    }
  },
  {
    "code": "FSIA",
    "name": "Seychelles Intl",
    "city": "Mahé",
    "country": "SC",
    "lat": -4.6743,
    "lon": 55.5218,
    "_version": 2,
    "region": "Africa",
    "type": "regional",
    "slotLevel": 1,
    "slotCoordinator": null,
    "curfew": {
      "hasCurfew": false,
      "hours": null,
      "exceptions": null
    },
    "customs": {
      "available": false,
      "hours": "Contact FBO",
      "advanceNotice": "24 hours typical"
    },
    "aoe": false,
    "immigration": {
      "available": false,
      "hours": "Contact FBO"
    }
  },
  {
    "code": "SBGR",
    "name": "Guarulhos",
    "city": "São Paulo",
    "country": "BR",
    "lat": -23.4356,
    "lon": -46.4731,
    "_version": 2,
    "region": "South America",
    "type": "regional",
    "slotLevel": 1,
    "slotCoordinator": null,
    "curfew": {
      "hasCurfew": false,
      "hours": null,
      "exceptions": null
    },
    "customs": {
      "available": false,
      "hours": "Contact FBO",
      "advanceNotice": "24 hours typical"
    },
    "aoe": false,
    "immigration": {
      "available": false,
      "hours": "Contact FBO"
    }
  },
  {
    "code": "SBRJ",
    "name": "Santos Dumont",
    "city": "Rio de Janeiro",
    "country": "BR",
    "lat": -22.9105,
    "lon": -43.1631,
    "_version": 2,
    "region": "South America",
    "type": "regional",
    "slotLevel": 1,
    "slotCoordinator": null,
    "curfew": {
      "hasCurfew": false,
      "hours": null,
      "exceptions": null
    },
    "customs": {
      "available": false,
      "hours": "Contact FBO",
      "advanceNotice": "24 hours typical"
    },
    "aoe": false,
    "immigration": {
      "available": false,
      "hours": "Contact FBO"
    }
  },
  {
    "code": "SAEZ",
    "name": "Ezeiza",
    "city": "Buenos Aires",
    "country": "AR",
    "lat": -34.8222,
    "lon": -58.5358,
    "_version": 2,
    "region": "South America",
    "type": "regional",
    "slotLevel": 1,
    "slotCoordinator": null,
    "curfew": {
      "hasCurfew": false,
      "hours": null,
      "exceptions": null
    },
    "customs": {
      "available": false,
      "hours": "Contact FBO",
      "advanceNotice": "24 hours typical"
    },
    "aoe": false,
    "immigration": {
      "available": false,
      "hours": "Contact FBO"
    }
  },
  {
    "code": "SCEL",
    "name": "Arturo Merino Benítez",
    "city": "Santiago",
    "country": "CL",
    "lat": -33.393,
    "lon": -70.7858,
    "_version": 2,
    "region": "South America",
    "type": "regional",
    "slotLevel": 1,
    "slotCoordinator": null,
    "curfew": {
      "hasCurfew": false,
      "hours": null,
      "exceptions": null
    },
    "customs": {
      "available": false,
      "hours": "Contact FBO",
      "advanceNotice": "24 hours typical"
    },
    "aoe": false,
    "immigration": {
      "available": false,
      "hours": "Contact FBO"
    }
  },
  {
    "code": "SKBO",
    "name": "El Dorado",
    "city": "Bogotá",
    "country": "CO",
    "lat": 4.7016,
    "lon": -74.1469,
    "_version": 2,
    "region": "South America",
    "type": "regional",
    "slotLevel": 1,
    "slotCoordinator": null,
    "curfew": {
      "hasCurfew": false,
      "hours": null,
      "exceptions": null
    },
    "customs": {
      "available": false,
      "hours": "Contact FBO",
      "advanceNotice": "24 hours typical"
    },
    "aoe": false,
    "immigration": {
      "available": false,
      "hours": "Contact FBO"
    }
  },
  {
    "code": "SPJC",
    "name": "Jorge Chávez",
    "city": "Lima",
    "country": "PE",
    "lat": -12.0219,
    "lon": -77.1143,
    "_version": 2,
    "region": "South America",
    "type": "regional",
    "slotLevel": 1,
    "slotCoordinator": null,
    "curfew": {
      "hasCurfew": false,
      "hours": null,
      "exceptions": null
    },
    "customs": {
      "available": false,
      "hours": "Contact FBO",
      "advanceNotice": "24 hours typical"
    },
    "aoe": false,
    "immigration": {
      "available": false,
      "hours": "Contact FBO"
    }
  },
  {
    "code": "SEQM",
    "name": "Mariscal Sucre",
    "city": "Quito",
    "country": "EC",
    "lat": -0.1292,
    "lon": -78.3575,
    "_version": 2,
    "region": "South America",
    "type": "regional",
    "slotLevel": 1,
    "slotCoordinator": null,
    "curfew": {
      "hasCurfew": false,
      "hours": null,
      "exceptions": null
    },
    "customs": {
      "available": false,
      "hours": "Contact FBO",
      "advanceNotice": "24 hours typical"
    },
    "aoe": false,
    "immigration": {
      "available": false,
      "hours": "Contact FBO"
    }
  },
  {
    "code": "SVMI",
    "name": "Simón Bolívar",
    "city": "Caracas",
    "country": "VE",
    "lat": 10.6012,
    "lon": -66.9912,
    "_version": 2,
    "region": "South America",
    "type": "regional",
    "slotLevel": 1,
    "slotCoordinator": null,
    "curfew": {
      "hasCurfew": false,
      "hours": null,
      "exceptions": null
    },
    "customs": {
      "available": false,
      "hours": "Contact FBO",
      "advanceNotice": "24 hours typical"
    },
    "aoe": false,
    "immigration": {
      "available": false,
      "hours": "Contact FBO"
    }
  },
  {
    "code": "MYNN",
    "name": "Lynden Pindling",
    "city": "Nassau",
    "country": "BS",
    "lat": 25.039,
    "lon": -77.4662,
    "_version": 2,
    "region": "Caribbean",
    "type": "regional",
    "slotLevel": 1,
    "slotCoordinator": null,
    "curfew": {
      "hasCurfew": false,
      "hours": null,
      "exceptions": null
    },
    "customs": {
      "available": false,
      "hours": "Contact FBO",
      "advanceNotice": "24 hours typical"
    },
    "aoe": false,
    "immigration": {
      "available": false,
      "hours": "Contact FBO"
    }
  },
  {
    "code": "MKJP",
    "name": "Norman Manley",
    "city": "Kingston",
    "country": "JM",
    "lat": 17.9357,
    "lon": -76.7875,
    "_version": 2,
    "region": "Caribbean",
    "type": "regional",
    "slotLevel": 1,
    "slotCoordinator": null,
    "curfew": {
      "hasCurfew": false,
      "hours": null,
      "exceptions": null
    },
    "customs": {
      "available": false,
      "hours": "Contact FBO",
      "advanceNotice": "24 hours typical"
    },
    "aoe": false,
    "immigration": {
      "available": false,
      "hours": "Contact FBO"
    }
  },
  {
    "code": "MDPC",
    "name": "Punta Cana",
    "city": "Punta Cana",
    "country": "DO",
    "lat": 18.5674,
    "lon": -68.3634,
    "_version": 2,
    "region": "Caribbean",
    "type": "regional",
    "slotLevel": 1,
    "slotCoordinator": null,
    "curfew": {
      "hasCurfew": false,
      "hours": null,
      "exceptions": null
    },
    "customs": {
      "available": false,
      "hours": "Contact FBO",
      "advanceNotice": "24 hours typical"
    },
    "aoe": false,
    "immigration": {
      "available": false,
      "hours": "Contact FBO"
    }
  },
  {
    "code": "TNCM",
    "name": "Princess Juliana",
    "city": "Sint Maarten",
    "country": "SX",
    "lat": 18.041,
    "lon": -63.1089,
    "_version": 2,
    "region": "Caribbean",
    "type": "regional",
    "slotLevel": 1,
    "slotCoordinator": null,
    "curfew": {
      "hasCurfew": false,
      "hours": null,
      "exceptions": null
    },
    "customs": {
      "available": false,
      "hours": "Contact FBO",
      "advanceNotice": "24 hours typical"
    },
    "aoe": false,
    "immigration": {
      "available": false,
      "hours": "Contact FBO"
    }
  },
  {
    "code": "TBPB",
    "name": "Grantley Adams",
    "city": "Barbados",
    "country": "BB",
    "lat": 13.0746,
    "lon": -59.4925,
    "_version": 2,
    "region": "Caribbean",
    "type": "regional",
    "slotLevel": 1,
    "slotCoordinator": null,
    "curfew": {
      "hasCurfew": false,
      "hours": null,
      "exceptions": null
    },
    "customs": {
      "available": false,
      "hours": "Contact FBO",
      "advanceNotice": "24 hours typical"
    },
    "aoe": false,
    "immigration": {
      "available": false,
      "hours": "Contact FBO"
    }
  },
  {
    "code": "MWCR",
    "name": "Owen Roberts",
    "city": "Grand Cayman",
    "country": "KY",
    "lat": 19.2928,
    "lon": -81.3577,
    "_version": 2,
    "region": "Caribbean",
    "type": "regional",
    "slotLevel": 1,
    "slotCoordinator": null,
    "curfew": {
      "hasCurfew": false,
      "hours": null,
      "exceptions": null
    },
    "customs": {
      "available": false,
      "hours": "Contact FBO",
      "advanceNotice": "24 hours typical"
    },
    "aoe": false,
    "immigration": {
      "available": false,
      "hours": "Contact FBO"
    }
  },
  {
    "code": "TJSJ",
    "name": "Luis Muñoz Marín",
    "city": "San Juan",
    "country": "PR",
    "lat": 18.4394,
    "lon": -66.0018,
    "_version": 2,
    "region": "Caribbean",
    "type": "regional",
    "slotLevel": 1,
    "slotCoordinator": null,
    "curfew": {
      "hasCurfew": false,
      "hours": null,
      "exceptions": null
    },
    "customs": {
      "available": false,
      "hours": "Contact FBO",
      "advanceNotice": "24 hours typical"
    },
    "aoe": false,
    "immigration": {
      "available": false,
      "hours": "Contact FBO"
    }
  },
  {
    "code": "MUHA",
    "name": "José Martí",
    "city": "Havana",
    "country": "CU",
    "lat": 22.9892,
    "lon": -82.4091,
    "_version": 2,
    "region": "Caribbean",
    "type": "regional",
    "slotLevel": 1,
    "slotCoordinator": null,
    "curfew": {
      "hasCurfew": false,
      "hours": null,
      "exceptions": null
    },
    "customs": {
      "available": false,
      "hours": "Contact FBO",
      "advanceNotice": "24 hours typical"
    },
    "aoe": false,
    "immigration": {
      "available": false,
      "hours": "Contact FBO"
    }
  },
  {
    "code": "YSSY",
    "name": "Sydney Kingsford Smith",
    "city": "Sydney",
    "country": "AU",
    "lat": -33.9399,
    "lon": 151.1753,
    "_version": 2,
    "region": "Oceania",
    "type": "international",
    "slotLevel": 1,
    "slotCoordinator": null,
    "curfew": {
      "hasCurfew": false,
      "hours": null,
      "exceptions": null
    },
    "customs": {
      "available": true,
      "hours": "Contact FBO",
      "advanceNotice": "24 hours typical"
    },
    "aoe": true,
    "immigration": {
      "available": true,
      "hours": "Contact FBO"
    }
  },
  {
    "code": "YMML",
    "name": "Melbourne Tullamarine",
    "city": "Melbourne",
    "country": "AU",
    "lat": -37.669,
    "lon": 144.841,
    "_version": 2,
    "region": "Oceania",
    "type": "regional",
    "slotLevel": 1,
    "slotCoordinator": null,
    "curfew": {
      "hasCurfew": false,
      "hours": null,
      "exceptions": null
    },
    "customs": {
      "available": false,
      "hours": "Contact FBO",
      "advanceNotice": "24 hours typical"
    },
    "aoe": false,
    "immigration": {
      "available": false,
      "hours": "Contact FBO"
    }
  },
  {
    "code": "NZAA",
    "name": "Auckland",
    "city": "Auckland",
    "country": "NZ",
    "lat": -37.0082,
    "lon": 174.785,
    "_version": 2,
    "region": "Oceania",
    "type": "regional",
    "slotLevel": 1,
    "slotCoordinator": null,
    "curfew": {
      "hasCurfew": false,
      "hours": null,
      "exceptions": null
    },
    "customs": {
      "available": false,
      "hours": "Contact FBO",
      "advanceNotice": "24 hours typical"
    },
    "aoe": false,
    "immigration": {
      "available": false,
      "hours": "Contact FBO"
    }
  },
  {
    "code": "NFFN",
    "name": "Nadi Intl",
    "city": "Nadi",
    "country": "FJ",
    "lat": -17.7554,
    "lon": 177.4431,
    "_version": 2,
    "region": "Oceania",
    "type": "regional",
    "slotLevel": 1,
    "slotCoordinator": null,
    "curfew": {
      "hasCurfew": false,
      "hours": null,
      "exceptions": null
    },
    "customs": {
      "available": false,
      "hours": "Contact FBO",
      "advanceNotice": "24 hours typical"
    },
    "aoe": false,
    "immigration": {
      "available": false,
      "hours": "Contact FBO"
    }
  },
  {
    "code": "NTAA",
    "name": "Faa'a",
    "city": "Papeete",
    "country": "PF",
    "lat": -17.5537,
    "lon": -149.6069,
    "_version": 2,
    "region": "Oceania",
    "type": "regional",
    "slotLevel": 1,
    "slotCoordinator": null,
    "curfew": {
      "hasCurfew": false,
      "hours": null,
      "exceptions": null
    },
    "customs": {
      "available": false,
      "hours": "Contact FBO",
      "advanceNotice": "24 hours typical"
    },
    "aoe": false,
    "immigration": {
      "available": false,
      "hours": "Contact FBO"
    }
  }
]